{"type": "FeatureCollection", "features": [{"type": "Feature", "geometry": {"type": "Point", "coordinates": [55.6971905, -21.2759416]}, "properties": {"id": 521216795, "camera:direction": "50", "camera:type": "fixed", "contact:webcam": "http://volcano.ipgp.fr/reunion/Camera/CameraBert.jpg", "man_made": "surveillance", "name": "Webcam du Piton de Bert", "surveillance": "outdoor", "surveillance:type": "camera", "surveillance:zone": "volcano", "data_source": "planet_osm"}}, {"type": "Feature", "geometry": {"type": "Point", "coordinates": [55.7019412, -21.2195878]}, "properties": {"id": 1697751463, "man_made": "surveillance", "name": "webcam", "surveillance": "outdoor", "data_source": "planet_osm"}}, {"type": "Feature", "geometry": {"type": "Point", "coordinates": [55.6543757, -21.2137957]}, "properties": {"id": 1697766311, "man_made": "surveillance", "name": "webcam Plateau des Basaltes", "data_source": "planet_osm"}}, {"type": "Feature", "geometry": {"type": "Point", "coordinates": [55.7088463, -21.2451161]}, "properties": {"id": 1697805858, "camera:direction": "80", "camera:mount": "building", "camera:type": "fixed", "contact:webcam": "http://volcano.ipgp.fr/reunion/Camera/CameraBory.jpg", "direction": "80", "man_made": "surveillance", "name": "Webcam du Crat\u00e8re Bory", "surveillance": "outdoor", "surveillance:type": "camera", "surveillance:zone": "volcano", "data_source": "planet_osm"}}, {"type": "Feature", "geometry": {"type": "Point", "coordinates": [55.4706471, -21.3388747]}, "properties": {"id": 5242400699, "addr:city": "Saint-Pierre", "addr:housenumber": "95", "addr:postcode": "97410", "addr:street": "Rue des Bons Enfants", "description": "fa\u00e7ade 3;Domotique", "man_made": "surveillance", "name": "Walali", "phone": "+262 692 31 23 14", "source": "survey : Projet master 2 RNET Mairie St-Pierre", "data_source": "planet_osm"}}, {"type": "Feature", "geometry": {"type": "Point", "coordinates": [55.484473, -20.9022496]}, "properties": {"id": 5336382760, "man_made": "surveillance", "surveillance:type": "camera", "data_source": "planet_osm"}}, {"type": "Feature", "geometry": {"type": "Point", "coordinates": [55.4824145, -20.9023269]}, "properties": {"id": 5336382761, "man_made": "surveillance", "surveillance:type": "camera", "data_source": "planet_osm"}}, {"type": "Feature", "geometry": {"type": "Point", "coordinates": [55.3690817, -20.9252942]}, "properties": {"id": 6104575086, "man_made": "surveillance", "data_source": "planet_osm"}}], "networks": []}