{"type": "FeatureCollection", "features": [{"type": "Feature", "geometry": {"type": "Point", "coordinates": [174.0936571, -35.2835268]}, "properties": {"camera:direction": "45", "contact:webcam": "https://snapithd.com/static/t31979fcfa6w184.jpg?width=1200&height=800&hide=1", "description": "A beautiful shot across the Bay towards Russell from the Pioneer Waterfront Apartments", "man_made": "surveillance", "name": "Paihia Beach", "source": "Pioneer Waterfront Apartments", "surveillance:type": "camera", "surveillance:zone": "beach"}}, {"type": "Feature", "geometry": {"type": "Point", "coordinates": [173.7782156, -35.1001979]}, "properties": {"camera:direction": "317", "contact:webcam": "https://www.nrc.govt.nz/environment/river-and-rainfall-data/webcams/kaeo-webcam/#Webcam%20images", "man_made": "surveillance", "name": "Kaeo River", "source": "Northland Regional Council", "surveillance:type": "camera", "surveillance:zone": "river"}}, {"type": "Feature", "geometry": {"type": "Point", "coordinates": [173.1186118, -34.8143683]}, "properties": {"camera:direction": "45", "contact:webcam": "https://saltair.co.nz/scenic-tours-photos/northland-web-cams", "man_made": "surveillance", "name": "Pukenui Wharf", "surveillance:type": "camera", "surveillance:zone": "beach"}}, {"type": "Feature", "geometry": {"type": "Point", "coordinates": [174.2936753, -35.7432475]}, "properties": {"camera:direction": "175", "contact:webcam": "https://cameraftp.com/Camera/Cameraplayer.aspx?parentID=310139865&shareID=14757307&isEmbedded=true&mode=live", "man_made": "surveillance", "name": "Hopua te Nihotetea Dam", "source": "Northland Regional Council", "surveillance:type": "camera", "surveillance:zone": "dam"}}, {"type": "Feature", "geometry": {"type": "Point", "coordinates": [173.2619697, -35.1020669]}, "properties": {"camera:direction": "20", "contact:webcam": "https://cameraftp.com/Camera/Cameraplayer.aspx?parentID=319599284&shareID=14896677&isEmbedded=true&mode=live", "man_made": "surveillance", "name": "Awanui River / Whangatane Spillway", "source": "Northland Regional Council", "surveillance:type": "camera", "surveillance:zone": "river"}}, {"type": "Feature", "geometry": {"type": "Point", "coordinates": [174.311313, -35.6913968]}, "properties": {"camera:mount": "pole", "highway": "street_lamp", "man_made": "surveillance", "surveillance:type": "camera"}}, {"type": "Feature", "geometry": {"type": "Point", "coordinates": [174.1235131, -35.260387]}, "properties": {"camera:direction": "260", "contact:webcam": "https://view.myairportcams.com/Russell/showimagecamera1.php", "description": "Looking towards Paihia from Russel", "man_made": "surveillance", "name": "Russel", "operator": "Bay of Islands Airport", "operator:wikidata": "Q6393897", "surveillance:type": "camera", "surveillance:zone": "harbour"}}, {"type": "Feature", "geometry": {"type": "Point", "coordinates": [173.9128012, -35.2635722]}, "properties": {"camera:direction": "0", "contact:webcam": "https://view.myairportcams.com/NZKK/showimagecamera1.php", "description": "Looking north from the Bay of Islands Airport", "man_made": "surveillance", "name": "Bay of Islands Airport - N", "operator": "Bay of Islands Airport", "operator:wikidata": "Q6393897", "surveillance:type": "camera", "surveillance:zone": "airport"}}, {"type": "Feature", "geometry": {"type": "Point", "coordinates": [174.3165268, -35.7256885]}, "properties": {"man_made": "surveillance", "surveillance:type": "camera"}}, {"type": "Feature", "geometry": {"type": "Point", "coordinates": [174.3349812, -35.6847931]}, "properties": {"man_made": "surveillance", "surveillance:type": "camera"}}], "networks": []}