{"type": "FeatureCollection", "features": [{"type": "Feature", "geometry": {"type": "Point", "coordinates": [174.0733844, -39.062428]}, "properties": {"camera:direction": "187", "camera:type": "fixed", "contact:webcam": "https://images.geonet.org.nz/volcano/cameras/latest/taranaki.jpg", "ele": "47", "man_made": "surveillance", "name": "Taranaki from New Plymouth", "ref": "TEMO", "source": "GeoNet", "start_date": "2002-09-18", "surveillance:type": "camera", "surveillance:zone": "volcano", "website": "https://www.geonet.org.nz/volcano/cameras/taranaki"}}, {"type": "Feature", "geometry": {"type": "Point", "coordinates": [172.898283, -40.823423]}, "properties": {"contact:webcam": "https://snapithd.com/static/tarakohe.jpg", "description": "Located 25m in the air at Port Tarakohe, at the southern end of Mohua / Golden Bay, this camera looks south-west along Pohara Beach.", "man_made": "surveillance", "name": "Tarakohe", "name:mi": "Tarakohe", "source": "Tasman District Council", "surveillance:type": "camera"}}, {"type": "Feature", "geometry": {"type": "Point", "coordinates": [173.009482, -40.546034]}, "properties": {"contact:webcam": "https://snapithd.com/static/farewellspit2.jpg", "description": "This camera shows the vista from the lighthouse at Farewell Spit", "man_made": "surveillance", "name": "Farewell Spit", "source": "Tasman District Council;Farewell Spit Ecotours", "surveillance:type": "camera"}}, {"type": "Feature", "geometry": {"type": "Point", "coordinates": [174.0683234, -39.0630577]}, "properties": {"man_made": "surveillance", "surveillance:type": "camera"}}, {"type": "Feature", "geometry": {"type": "Point", "coordinates": [174.0674182, -39.0637239]}, "properties": {"man_made": "surveillance", "surveillance:type": "camera"}}, {"type": "Feature", "geometry": {"type": "Point", "coordinates": [174.0825699, -39.2892609]}, "properties": {"camera:direction": "50", "camera:mount": "wall", "camera:type": "fixed", "contact:webcam": "https://taranakialpineclub.co.nz/webcams/translator/", "man_made": "surveillance", "name": "Translator", "operator": "Taranaki Alpine Club", "surveillance": "webcam", "surveillance:type": "camera"}}, {"type": "Feature", "geometry": {"type": "Point", "coordinates": [174.0825022, -39.2892763]}, "properties": {"camera:direction": "270", "camera:mount": "wall", "camera:type": "fixed", "contact:webcam": "https://taranakialpineclub.co.nz/webcams/hongis-valley/", "man_made": "surveillance", "name": "Hongi's Valley", "operator": "Taranaki Alpine Club", "surveillance": "webcam", "surveillance:type": "camera"}}, {"type": "Feature", "geometry": {"type": "Point", "coordinates": [174.0911637, -39.3035596]}, "properties": {"camera:direction": "120", "camera:mount": "wall", "camera:type": "fixed", "contact:webcam": "https://taranakialpineclub.co.nz/webcams/ski-field/", "man_made": "surveillance", "name": "Ski Field", "operator": "Taranaki Alpine Club", "surveillance": "webcam", "surveillance:type": "camera"}}, {"type": "Feature", "geometry": {"type": "Point", "coordinates": [174.0910223, -39.303602]}, "properties": {"camera:direction": "290", "camera:mount": "wall", "camera:type": "fixed", "contact:webcam": "https://taranakialpineclub.co.nz/webcams/sharks-tooth/", "man_made": "surveillance", "name": "Sharks Tooth", "operator": "Taranaki Alpine Club", "surveillance": "webcam", "surveillance:type": "camera"}}], "networks": []}